City,Lat,Lng,Max Temp,Humidity,Cloudiness,Wind Speed,Country,Current Description,Rain Inches (last 3 hours),Snow Inches (last 3 hours),Date
Rikitea,-23.12,-134.97,76.96,76,74,20.18,PF,broken clouds,0.0,0.0,2020-03-04 22:00:26
Port Alfred,-33.59,26.89,71.01,82,0,5.99,ZA,clear sky,0.0,0.0,2020-03-04 22:00:26
Cabo San Lucas,22.89,-109.91,73.4,43,40,11.41,MX,scattered clouds,0.0,0.0,2020-03-04 22:00:09
Thompson,55.74,-97.86,23.0,57,75,4.7,CA,broken clouds,0.0,0.0,2020-03-04 22:00:27
Saint Anthony,45.02,-93.22,42.01,44,40,9.17,US,scattered clouds,0.0,0.0,2020-03-04 22:00:27
Kapaa,22.08,-159.32,78.8,74,20,10.29,US,few clouds,0.0,0.0,2020-03-04 22:00:27
Atuona,-9.8,-139.03,80.85,74,27,12.66,PF,scattered clouds,0.0,0.0,2020-03-04 21:54:40
Provideniya,64.38,-173.3,8.6,65,0,4.47,RU,clear sky,0.0,0.0,2020-03-04 22:00:28
Castro,-24.79,-50.01,70.45,63,0,0.51,BR,clear sky,0.0,0.0,2020-03-04 21:56:17
Ambilobe,-13.2,49.05,75.83,92,68,3.76,MG,light rain,2.13,0.0,2020-03-04 22:00:28
Chapais,49.78,-74.85,24.8,68,90,14.99,CA,overcast clouds,0.0,0.0,2020-03-04 22:00:28
Putyatino,54.16,41.12,32.38,94,100,5.17,RU,overcast clouds,0.0,0.0,2020-03-04 22:00:29
Maniitsoq,65.42,-52.9,14.0,40,20,3.36,GL,few clouds,0.0,0.0,2020-03-04 22:00:29
Mataura,-46.19,168.86,57.0,68,0,3.0,NZ,clear sky,0.0,0.0,2020-03-04 21:54:44
Busselton,-33.65,115.33,62.01,56,94,9.64,AU,overcast clouds,0.0,0.0,2020-03-04 21:54:42
Peniche,39.36,-9.38,60.01,87,20,9.17,PT,few clouds,0.0,0.0,2020-03-04 22:00:29
Birao,10.28,22.79,80.91,12,0,8.66,CF,clear sky,0.0,0.0,2020-03-04 22:00:30
Victoria,22.29,114.16,63.0,93,40,12.75,HK,light rain,0.0,0.0,2020-03-04 21:53:22
Ushuaia,-54.8,-68.3,57.2,71,40,4.5,AR,scattered clouds,0.0,0.0,2020-03-04 21:56:49
Asau,46.43,26.4,52.0,81,72,13.87,RO,broken clouds,0.0,0.0,2020-03-04 22:00:30
Tahta,26.77,31.5,67.55,13,0,8.77,EG,clear sky,0.0,0.0,2020-03-04 22:00:30
Clarence Town,-32.58,151.78,73.99,83,90,9.17,AU,light rain,0.0,0.0,2020-03-04 22:00:31
Ngunguru,-35.62,174.5,66.0,97,100,10.0,NZ,light rain,2.06,0.0,2020-03-04 22:00:31
Henties Bay,-22.12,14.28,68.0,90,41,5.01,NA,scattered clouds,0.0,0.0,2020-03-04 22:00:31
Bathsheba,13.22,-59.52,82.4,61,40,20.8,BB,scattered clouds,0.0,0.0,2020-03-04 22:00:07
Kresek,-6.13,106.38,78.01,88,40,9.17,ID,light rain,0.0,0.0,2020-03-04 22:00:32
Forbes,-33.38,148.02,68.0,90,100,1.99,AU,moderate rain,4.44,0.0,2020-03-04 22:00:32
Shimoda,34.67,138.95,52.0,81,100,1.01,JP,overcast clouds,0.0,0.0,2020-03-04 22:00:32
Namibe,-15.2,12.15,73.74,84,0,15.79,AO,clear sky,0.0,0.0,2020-03-04 22:00:32
Esil,51.96,66.4,15.53,88,100,8.34,KZ,overcast clouds,0.0,0.0,2020-03-04 22:00:33
Xining,36.62,101.77,25.12,41,1,5.53,CN,clear sky,0.0,0.0,2020-03-04 22:00:33
Sinnamary,5.38,-52.95,79.56,74,35,13.47,GF,scattered clouds,0.0,0.0,2020-03-04 22:00:33
Akhtubinsk,48.28,46.17,46.92,82,100,7.05,RU,overcast clouds,0.0,0.0,2020-03-04 22:00:33
Bethel,41.37,-73.41,55.99,39,20,17.22,US,few clouds,0.0,0.0,2020-03-04 21:58:23
Berdigestyakh,62.1,126.7,-5.13,97,100,4.36,RU,overcast clouds,0.0,0.0,2020-03-04 22:00:34
New Norfolk,-42.78,147.06,62.6,93,75,10.29,AU,moderate rain,0.0,0.0,2020-03-04 21:56:49
Narsaq,60.92,-46.05,8.6,46,0,3.36,GL,clear sky,0.0,0.0,2020-03-04 22:00:34
Ponta Delgada,37.73,-25.67,57.2,62,20,5.82,PT,few clouds,0.0,0.0,2020-03-04 22:00:34
Manaure,11.78,-72.44,93.2,34,1,17.22,CO,clear sky,0.0,0.0,2020-03-04 22:00:35
Vaini,-21.2,-175.2,82.4,74,40,8.05,TO,scattered clouds,0.0,0.0,2020-03-04 22:00:35
Lebu,-37.62,-73.65,69.62,50,6,14.12,CL,clear sky,0.0,0.0,2020-03-04 21:56:49
Mehamn,71.04,27.85,23.0,67,93,8.05,NO,overcast clouds,0.0,0.0,2020-03-04 22:00:36
La Ronge,55.1,-105.28,24.8,85,90,2.24,CA,light snow,0.0,0.0,2020-03-04 22:00:36
Ribeira Grande,38.52,-28.7,57.2,62,20,5.82,PT,few clouds,0.0,0.0,2020-03-04 22:00:36
Jaciara,-15.97,-54.97,80.92,76,26,4.09,BR,scattered clouds,0.0,0.0,2020-03-04 21:57:05
Vanimo,-2.67,141.3,82.26,80,100,6.06,PG,light rain,1.0,0.0,2020-03-04 22:00:37
Tasiilaq,65.61,-37.64,26.6,79,98,9.17,GL,overcast clouds,0.0,0.0,2020-03-04 22:00:37
Hermanus,-34.42,19.23,66.0,91,0,2.59,ZA,clear sky,0.0,0.0,2020-03-04 22:00:37
Jamestown,42.1,-79.24,36.0,97,90,14.99,US,light rain,0.0,0.0,2020-03-04 22:00:37
Hinton,53.4,-117.59,28.45,56,100,15.48,CA,overcast clouds,0.0,0.0,2020-03-04 22:00:37
Esperance,-33.87,121.9,59.0,77,0,12.75,AU,clear sky,0.0,0.0,2020-03-04 22:00:38
Biak,-0.91,122.88,81.14,75,100,7.9,ID,light rain,0.19,0.0,2020-03-04 22:00:38
Hilo,19.73,-155.09,78.8,69,75,11.41,US,broken clouds,0.0,0.0,2020-03-04 22:00:05
Bubaque,11.28,-15.83,79.81,70,0,16.51,GW,clear sky,0.0,0.0,2020-03-04 22:00:39
Bredasdorp,-34.53,20.04,68.0,77,0,5.82,ZA,clear sky,0.0,0.0,2020-03-04 22:00:39
Panguna,-6.32,155.48,73.42,93,100,1.19,PG,overcast clouds,0.0,0.0,2020-03-04 22:00:39
Luderitz,-26.65,15.16,69.8,83,0,13.87,NA,clear sky,0.0,0.0,2020-03-04 21:54:41
Codrington,-38.27,141.97,61.3,91,100,11.99,AU,light rain,0.31,0.0,2020-03-04 22:00:40
Barrow,71.29,-156.79,-32.8,93,1,5.82,US,clear sky,0.0,0.0,2020-03-04 22:00:40
Chokurdakh,70.63,147.92,-12.89,80,0,2.98,RU,clear sky,0.0,0.0,2020-03-04 22:00:40
Gallup,35.53,-108.74,60.8,12,1,8.05,US,clear sky,0.0,0.0,2020-03-04 21:56:59
East London,-33.02,27.91,77.25,85,0,11.16,ZA,clear sky,0.0,0.0,2020-03-04 22:00:41
Constitucion,-35.33,-72.42,67.17,57,0,12.82,CL,clear sky,0.0,0.0,2020-03-04 22:00:41
Opuwo,-18.06,13.84,67.69,62,50,3.31,NA,scattered clouds,0.0,0.0,2020-03-04 22:00:41
Xunchang,28.45,104.72,52.29,68,54,0.74,CN,broken clouds,0.0,0.0,2020-03-04 22:00:42
Ucluelet,48.93,-125.55,48.0,70,90,5.82,CA,overcast clouds,0.0,0.0,2020-03-04 21:57:33
Mar Del Plata,-38.0,-57.56,78.01,94,75,13.87,AR,fog,0.0,0.0,2020-03-04 22:00:42
Walvis Bay,-22.96,14.51,68.0,88,0,2.24,NA,clear sky,0.0,0.0,2020-03-04 22:00:42
Saskylakh,71.92,114.08,-2.15,97,89,2.82,RU,overcast clouds,0.0,0.0,2020-03-04 22:00:43
Dikson,73.51,80.55,-12.14,97,100,14.97,RU,overcast clouds,0.0,0.0,2020-03-04 22:00:43
Cape Town,-33.93,18.42,68.0,88,3,8.05,ZA,clear sky,0.0,0.0,2020-03-04 21:57:31
Punta Arenas,-53.15,-70.92,62.6,63,75,21.92,CL,broken clouds,0.0,0.0,2020-03-04 21:56:53
Kongolo,-5.38,27.0,70.07,95,100,1.39,CD,overcast clouds,0.0,0.0,2020-03-04 22:00:44
Mitsamiouli,-11.38,43.28,80.6,83,20,6.93,KM,few clouds,0.0,0.0,2020-03-04 22:00:44
Rovaniemi,66.5,25.72,17.6,72,100,13.87,FI,overcast clouds,0.0,0.0,2020-03-04 21:59:13
Ipixuna,-1.76,-48.8,82.4,74,75,8.05,BR,broken clouds,0.0,0.0,2020-03-04 22:00:44
Pampa,35.54,-100.96,60.8,19,1,3.36,US,clear sky,0.0,0.0,2020-03-04 21:58:31
Maldonado,-34.67,-54.92,77.0,69,20,13.87,UY,few clouds,0.0,0.0,2020-03-04 22:00:45
Lubben,51.95,13.9,41.0,86,41,6.93,DE,scattered clouds,0.0,0.0,2020-03-04 22:00:45
Kavaratti,10.57,72.64,81.81,75,2,14.88,IN,clear sky,0.0,0.0,2020-03-04 22:00:45
Taltal,-25.4,-70.48,67.19,69,0,8.21,CL,clear sky,0.0,0.0,2020-03-04 22:00:46
Urucui,-7.23,-44.56,75.43,95,93,5.1,BR,moderate rain,3.94,0.0,2020-03-04 22:00:46
Arraial Do Cabo,-22.97,-42.03,75.2,88,75,12.75,BR,broken clouds,0.0,0.0,2020-03-04 22:00:46
Lahij,13.17,44.58,76.24,59,10,6.8,YE,clear sky,0.0,0.0,2020-03-04 22:00:46
Nikolskoye,59.7,30.79,39.2,86,90,11.18,RU,light intensity shower rain,0.0,0.0,2020-03-04 21:56:49
Cape Canaveral,28.41,-80.6,90.0,58,75,10.29,US,broken clouds,0.0,0.0,2020-03-04 22:00:47
Chimbote,-9.09,-78.58,81.81,56,86,12.03,PE,overcast clouds,0.0,0.0,2020-03-04 22:00:47
Kaitangata,-46.28,169.85,49.08,75,0,6.04,NZ,clear sky,0.0,0.0,2020-03-04 22:00:47
Maragogi,-9.01,-35.22,84.24,75,0,13.44,BR,clear sky,0.0,0.0,2020-03-04 22:00:47
Atherton,53.52,-2.49,41.0,80,99,3.36,GB,overcast clouds,0.0,0.0,2020-03-04 21:59:51
Takaka,-40.85,172.8,62.01,58,27,4.0,NZ,scattered clouds,0.0,0.0,2020-03-04 22:00:48
Hasaki,35.73,140.83,46.4,93,75,2.24,JP,mist,0.0,0.0,2020-03-04 22:00:48
Tuatapere,-46.13,167.68,57.0,67,0,3.0,NZ,clear sky,0.0,0.0,2020-03-04 22:00:48
Casper,42.87,-106.31,45.0,52,1,28.86,US,clear sky,0.0,0.0,2020-03-04 21:57:54
Tuktoyaktuk,69.45,-133.04,-25.6,74,75,10.29,CA,broken clouds,0.0,0.0,2020-03-04 22:00:49
Quang Ngai,15.12,108.8,75.58,82,100,7.07,VN,light rain,0.25,0.0,2020-03-04 22:00:49
Airai,-8.93,125.41,67.23,93,100,2.57,TL,overcast clouds,0.0,0.0,2020-03-04 22:00:49
Vesoul,47.58,5.83,46.4,80,90,4.7,FR,overcast clouds,0.0,0.0,2020-03-04 22:00:49
Lorengau,-2.02,147.27,84.04,73,93,9.55,PG,moderate rain,3.75,0.0,2020-03-04 22:00:50
Iqaluit,63.75,-68.51,5.0,77,75,2.82,CA,light snow,0.0,0.0,2020-03-04 22:00:50
Puerto Ayora,-0.74,-90.35,82.4,78,75,6.93,EC,shower rain,0.0,0.0,2020-03-04 22:00:50
Maniwaki,46.38,-75.97,33.8,81,94,8.41,CA,light snow,0.0,0.25,2020-03-04 22:00:50
Kyzyl-Suu,42.34,78.0,29.35,52,0,5.44,KG,clear sky,0.0,0.0,2020-03-04 22:00:51
Salalah,17.02,54.09,82.4,15,4,8.05,OM,clear sky,0.0,0.0,2020-03-04 22:00:51
Knysna,-34.04,23.05,69.8,68,90,5.82,ZA,overcast clouds,0.0,0.0,2020-03-04 22:00:51
Moron,-34.65,-58.62,90.0,35,0,10.29,AR,clear sky,0.0,0.0,2020-03-04 22:00:51
Husavik,66.04,-17.34,8.6,71,98,8.05,IS,overcast clouds,0.0,0.0,2020-03-04 21:56:54
Port Elizabeth,-33.92,25.57,73.4,69,57,16.11,ZA,broken clouds,0.0,0.0,2020-03-04 21:57:54
Vermillion,42.78,-96.93,64.4,25,1,23.04,US,clear sky,0.0,0.0,2020-03-04 22:00:52
Oblivskaya,48.54,42.5,47.98,68,35,5.79,RU,scattered clouds,0.0,0.0,2020-03-04 22:00:52
Torbay,47.67,-52.73,46.99,93,90,34.45,CA,moderate rain,0.0,0.0,2020-03-04 21:58:03
Nome,64.5,-165.41,1.99,70,1,3.36,US,clear sky,0.0,0.0,2020-03-04 22:00:53
Honiara,-9.43,159.95,80.6,83,20,3.36,SB,few clouds,0.0,0.0,2020-03-04 22:00:53
Pangnirtung,66.15,-65.71,10.4,85,90,8.05,CA,light snow,0.0,0.0,2020-03-04 22:00:53
College,64.86,-147.8,-7.01,82,1,2.28,US,clear sky,0.0,0.0,2020-03-04 22:00:53
Yellowknife,62.46,-114.35,-4.0,64,75,12.75,CA,light snow,0.0,0.0,2020-03-04 22:00:43
Butaritari,3.07,172.79,83.01,79,100,16.15,KI,overcast clouds,0.0,0.0,2020-03-04 22:00:54
Bouna,9.27,-3.0,89.04,31,96,4.74,CI,overcast clouds,0.0,0.0,2020-03-04 22:00:54
Yingkou,40.66,122.23,29.14,59,0,8.14,CN,clear sky,0.0,0.0,2020-03-04 22:00:54
Te Anau,-45.42,167.72,43.84,78,0,2.46,NZ,clear sky,0.0,0.0,2020-03-04 22:00:55
Senneterre,48.38,-77.23,37.4,40,75,6.93,CA,broken clouds,0.0,0.0,2020-03-04 22:00:55
Kyren,51.68,102.14,13.17,96,100,0.43,RU,light snow,0.0,0.75,2020-03-04 22:00:55
Hobart,-42.88,147.33,62.6,93,75,10.29,AU,heavy intensity rain,0.0,0.0,2020-03-04 21:57:06
Port Macquarie,-31.43,152.92,75.99,88,90,4.7,AU,overcast clouds,0.0,0.0,2020-03-04 22:00:55
Emerald,-23.53,148.17,77.0,94,90,10.29,AU,overcast clouds,0.0,0.0,2020-03-04 22:00:56
Porbandar,21.64,69.61,74.89,79,0,12.37,IN,clear sky,0.0,0.0,2020-03-04 22:00:56
Sirjan,29.45,55.68,42.12,37,0,9.24,IR,clear sky,0.0,0.0,2020-03-04 22:00:56
Antsohihy,-14.88,47.99,73.6,92,38,6.13,MG,scattered clouds,0.0,0.0,2020-03-04 22:00:57
Puerto Del Rosario,28.5,-13.86,66.2,88,75,11.41,ES,broken clouds,0.0,0.0,2020-03-04 22:00:57
Aykhal,66.0,111.5,1.4,84,99,6.71,RU,overcast clouds,0.0,0.0,2020-03-04 22:00:57
Geraldton,-28.77,114.6,66.2,63,33,5.82,AU,scattered clouds,0.0,0.0,2020-03-04 22:00:49
Hami,42.8,93.45,38.1,41,99,8.03,CN,overcast clouds,0.0,0.0,2020-03-04 22:00:58
Bluff,-46.6,168.33,57.0,67,0,3.0,NZ,clear sky,0.0,0.0,2020-03-04 22:00:58
Albany,42.6,-73.97,48.2,64,90,10.29,US,overcast clouds,0.0,0.0,2020-03-04 22:00:37
Port Moresby,-9.44,147.18,77.0,100,40,2.24,PG,scattered clouds,0.0,0.0,2020-03-04 22:00:59
Jalu,29.03,21.55,63.27,30,2,4.41,LY,clear sky,0.0,0.0,2020-03-04 22:00:59
Charters Towers,-20.1,146.27,75.27,91,70,4.94,AU,broken clouds,0.0,0.0,2020-03-04 22:00:59
Porto Walter,-8.27,-72.74,90.39,52,61,4.34,BR,broken clouds,0.0,0.0,2020-03-04 22:00:59
Nanortalik,60.14,-45.24,20.14,56,0,12.77,GL,clear sky,0.0,0.0,2020-03-04 22:01:00
Talnakh,69.49,88.4,10.4,85,40,11.18,RU,light snow,0.0,0.0,2020-03-04 22:01:00
Sars,56.55,57.14,24.51,95,100,6.58,RU,light snow,0.0,0.19,2020-03-04 22:01:00
Isangel,-19.55,169.27,84.2,79,20,10.94,VU,few clouds,0.0,0.0,2020-03-04 22:01:00
Vilhena,-12.74,-60.15,84.2,54,40,6.93,BR,scattered clouds,0.0,0.0,2020-03-04 21:58:18
Faanui,-16.48,-151.75,81.93,78,76,10.54,PF,broken clouds,0.0,0.0,2020-03-04 22:01:01
Chuy,-33.7,-53.46,74.03,62,0,11.74,UY,clear sky,0.0,0.0,2020-03-04 22:01:01
Khatanga,71.97,102.5,-6.79,100,95,6.85,RU,overcast clouds,0.0,0.0,2020-03-04 22:01:01
Saldanha,-33.01,17.94,66.2,88,0,10.29,ZA,clear sky,0.0,0.0,2020-03-04 22:01:01
Yulara,-25.24,130.99,60.8,59,0,5.82,AU,clear sky,0.0,0.0,2020-03-04 22:01:02
Mount Gambier,-37.83,140.77,60.8,93,90,10.29,AU,overcast clouds,0.0,0.0,2020-03-04 21:57:13
Touros,-5.2,-35.46,84.2,70,40,10.29,BR,scattered clouds,0.0,0.0,2020-03-04 22:01:02
Olafsvik,64.89,-23.71,29.64,70,57,7.16,IS,broken clouds,0.0,0.0,2020-03-04 22:01:02
Ancud,-41.87,-73.82,71.6,60,0,8.05,CL,clear sky,0.0,0.0,2020-03-04 22:01:03
La Libertad,-2.23,-80.9,84.2,74,20,6.93,EC,few clouds,0.0,0.0,2020-03-04 22:01:03
Laje,-10.18,-40.97,74.86,83,100,1.41,BR,moderate rain,6.31,0.0,2020-03-04 22:01:03
Pacific Grove,36.62,-121.92,79.0,27,1,3.36,US,clear sky,0.0,0.0,2020-03-04 22:01:03
Xuanzhou,30.95,118.76,39.34,68,59,10.74,CN,broken clouds,0.0,0.0,2020-03-04 22:01:03
Cockburn Town,21.46,-71.14,80.6,74,40,11.41,TC,scattered clouds,0.0,0.0,2020-03-04 22:01:04
Lazaro Cardenas,17.96,-102.2,83.26,53,0,8.66,MX,clear sky,0.0,0.0,2020-03-04 22:01:04
Margate,51.38,1.39,45.0,100,75,8.05,GB,moderate rain,0.0,0.0,2020-03-04 21:57:45
The Valley,18.22,-63.06,82.4,69,40,13.87,AI,scattered clouds,0.0,0.0,2020-03-04 22:01:05
Leningradskiy,69.38,178.42,0.57,61,51,3.58,RU,broken clouds,0.0,0.0,2020-03-04 22:01:05
Lagoa,39.05,-27.98,59.16,68,16,19.53,PT,few clouds,0.0,0.0,2020-03-04 22:01:05
Progreso,21.28,-89.67,100.0,32,20,13.87,MX,few clouds,0.0,0.0,2020-03-04 21:57:55
Feijo,-8.16,-70.35,88.23,63,98,0.81,BR,overcast clouds,0.0,0.0,2020-03-04 22:01:05
Mabaruma,8.2,-59.78,82.38,63,45,6.49,GY,light rain,0.19,0.0,2020-03-04 22:01:06
Berezovyy,51.67,135.7,9.07,96,90,1.25,RU,overcast clouds,0.0,0.0,2020-03-04 22:01:06
Storforshei,66.4,14.52,28.4,58,75,18.34,NO,broken clouds,0.0,0.0,2020-03-04 22:01:06
Vao,-22.67,167.48,79.32,76,11,8.61,NC,few clouds,0.0,0.0,2020-03-04 22:01:06
Bandarbeyla,9.49,50.81,77.52,69,17,9.91,SO,few clouds,0.0,0.0,2020-03-04 22:01:07
Karpathos,35.51,27.21,60.8,87,100,12.75,GR,light rain,0.19,0.0,2020-03-04 22:01:07
Pevek,69.7,170.31,-2.29,68,71,9.82,RU,broken clouds,0.0,0.0,2020-03-04 22:01:07
Tessalit,20.2,1.01,78.76,11,0,10.27,ML,clear sky,0.0,0.0,2020-03-04 22:01:07
Olinda,-8.01,-34.86,86.0,70,40,8.05,BR,scattered clouds,0.0,0.0,2020-03-04 22:00:39
Kodiak,57.79,-152.41,17.6,48,40,21.92,US,scattered clouds,0.0,0.0,2020-03-04 21:58:52
Nuuk,64.18,-51.72,14.0,72,20,14.99,GL,few clouds,0.0,0.0,2020-03-04 21:59:33
Pisco,-13.7,-76.22,75.0,30,40,16.11,PE,scattered clouds,0.0,0.0,2020-03-04 22:01:08
Mariental,-24.63,17.97,76.01,42,9,11.41,NA,clear sky,0.0,0.0,2020-03-04 22:01:09
Bambous Virieux,-20.34,57.76,79.0,100,40,10.38,MU,scattered clouds,0.0,0.0,2020-03-04 22:01:09
Bereda,43.27,-7.54,62.6,82,40,14.99,ES,scattered clouds,0.0,0.0,2020-03-04 22:01:09
Tshikapa,-6.42,20.8,74.25,76,34,1.9,CD,scattered clouds,0.0,0.0,2020-03-04 22:01:09
Zhezkazgan,47.8,67.71,10.8,59,21,4.76,KZ,few clouds,0.0,0.0,2020-03-04 22:01:09
Vila Franca Do Campo,37.72,-25.43,57.2,62,20,5.82,PT,few clouds,0.0,0.0,2020-03-04 22:01:10
Mount Hagen,-5.86,144.23,53.2,99,100,0.51,PG,heavy intensity rain,12.13,0.0,2020-03-04 22:01:10
Guerrero Negro,27.98,-114.06,72.05,36,0,9.01,MX,clear sky,0.0,0.0,2020-03-04 22:01:10
Mengyin,35.71,117.93,28.08,55,0,3.0,CN,clear sky,0.0,0.0,2020-03-04 22:01:10
Lhokseumawe,5.18,97.15,72.27,90,100,2.15,ID,overcast clouds,0.0,0.0,2020-03-04 21:56:34
Usinsk,65.99,57.53,13.06,91,94,16.75,RU,light snow,0.0,0.13,2020-03-04 22:01:11
Aklavik,68.22,-135.01,-14.8,62,40,8.59,CA,scattered clouds,0.0,0.0,2020-03-04 22:01:11
Tahoua,14.89,5.27,86.0,13,0,4.7,NE,clear sky,0.0,0.0,2020-03-04 22:01:11
Sakakah,29.97,40.21,57.2,30,0,9.17,SA,clear sky,0.0,0.0,2020-03-04 22:01:11
Taywarah,33.35,64.42,24.48,88,100,6.8,AF,light snow,0.0,0.94,2020-03-04 22:01:12
Ponta Do Sol,32.67,-17.1,64.4,72,40,8.05,PT,scattered clouds,0.0,0.0,2020-03-04 22:01:12
Vila Velha,-20.33,-40.29,77.0,94,75,9.17,BR,moderate rain,0.0,0.0,2020-03-04 22:01:12
Lavrentiya,65.58,-171.0,1.29,90,85,2.75,RU,overcast clouds,0.0,0.0,2020-03-04 22:01:12
Dunedin,-45.87,170.5,49.28,70,0,4.59,NZ,clear sky,0.0,0.0,2020-03-04 22:01:13
Nhulunbuy,-12.23,136.77,82.4,83,51,5.82,AU,broken clouds,0.0,0.0,2020-03-04 22:01:13
Richards Bay,-28.78,32.04,75.99,74,0,20.62,ZA,clear sky,0.0,0.0,2020-03-04 22:01:13
Minsk,53.9,27.57,46.4,93,75,6.71,BY,broken clouds,0.0,0.0,2020-03-04 22:00:55
Grootfontein,-19.57,18.12,64.27,82,17,10.89,NA,light rain,1.13,0.0,2020-03-04 22:01:14
Goalpara,26.17,90.62,65.19,59,32,2.04,IN,scattered clouds,0.0,0.0,2020-03-04 22:01:14
Cherskiy,68.75,161.3,1.29,73,46,14.79,RU,scattered clouds,0.0,0.0,2020-03-04 22:01:14
Sampit,-2.53,112.95,73.31,99,100,1.79,ID,overcast clouds,0.0,0.0,2020-03-04 22:01:14
Fort Nelson,58.81,-122.7,10.4,51,75,9.17,CA,broken clouds,0.0,0.0,2020-03-04 22:00:43
Jaisalmer,26.91,70.92,68.58,45,0,13.67,IN,clear sky,0.0,0.0,2020-03-04 22:01:15
Karasuk,53.74,78.04,20.91,94,100,14.92,RU,overcast clouds,0.0,0.0,2020-03-04 22:01:15
Brae,60.4,-1.35,42.8,93,99,10.29,GB,light rain,0.63,0.0,2020-03-04 22:01:15
Quatre Cocos,-20.21,57.76,79.0,100,40,9.93,MU,scattered clouds,0.0,0.0,2020-03-04 21:59:12
Ingersoll,43.03,-80.88,37.99,74,90,11.41,CA,overcast clouds,0.0,0.0,2020-03-04 22:01:15
Hambantota,6.12,81.12,77.0,100,75,2.24,LK,broken clouds,0.0,0.0,2020-03-04 22:01:16
Yueyang,29.33,113.09,47.46,90,20,1.28,CN,few clouds,0.0,0.0,2020-03-04 22:01:16
Clyde River,70.47,-68.59,-14.8,83,75,16.11,CA,broken clouds,0.0,0.0,2020-03-04 22:01:16
Waipawa,-41.41,175.52,61.0,54,83,18.34,NZ,broken clouds,0.0,0.0,2020-03-04 22:01:17
Angoche,-16.23,39.91,73.62,92,14,7.36,MZ,few clouds,0.0,0.0,2020-03-04 22:01:17
Buala,-8.14,159.59,82.31,80,100,4.14,SB,light rain,1.75,0.0,2020-03-04 22:01:17
Campbell River,50.02,-125.24,46.4,69,75,12.75,CA,broken clouds,0.0,0.0,2020-03-04 22:01:17
Kodino,63.72,39.64,16.03,92,67,7.09,RU,broken clouds,0.0,0.0,2020-03-04 22:01:17
Okhotsk,59.38,143.3,-0.4,99,92,1.66,RU,overcast clouds,0.0,0.0,2020-03-04 22:01:18
Raudeberg,61.99,5.14,39.0,93,75,11.41,NO,light intensity shower rain,0.0,0.0,2020-03-04 22:01:18
Aberdeen,57.14,-2.1,37.99,77,67,3.36,GB,broken clouds,0.0,0.0,2020-03-04 22:01:18
Avarua,-21.21,-159.78,84.2,79,0,5.82,CK,clear sky,0.0,0.0,2020-03-04 22:00:59
Alipur,29.38,70.91,62.92,66,0,14.09,PK,clear sky,0.0,0.0,2020-03-04 22:01:19
Pitimbu,-7.47,-34.81,82.4,78,20,8.05,BR,few clouds,0.0,0.0,2020-03-04 22:01:19
Bac Lieu,9.29,105.72,73.27,92,69,5.23,VN,broken clouds,0.0,0.0,2020-03-04 22:01:19
Ahipara,-35.17,173.17,66.99,100,95,1.01,NZ,overcast clouds,0.0,0.0,2020-03-04 22:01:19
Las Choapas,17.93,-94.08,96.8,32,5,23.04,MX,clear sky,0.0,0.0,2020-03-04 22:01:20
Kombissiri,12.07,-1.34,87.8,16,39,3.36,BF,scattered clouds,0.0,0.0,2020-03-04 22:01:20
Aitape,-3.14,142.35,82.54,78,100,8.14,PG,light rain,2.63,0.0,2020-03-04 22:01:20
Pontianak,-0.03,109.33,73.92,98,100,3.42,ID,light rain,0.38,0.0,2020-03-04 22:01:20
Seoul,37.57,126.98,28.4,73,1,2.24,KR,clear sky,0.0,0.0,2020-03-04 21:57:50
Muros,42.78,-9.06,60.01,100,90,16.11,ES,light rain,0.0,0.0,2020-03-04 22:01:21
Blessington,53.17,-6.53,35.6,100,2,3.36,IE,clear sky,0.0,0.0,2020-03-04 22:01:21
San Patricio,19.22,-104.7,80.6,74,20,23.04,MX,few clouds,0.0,0.0,2020-03-04 22:01:21
Mandalgovi,45.76,106.27,22.15,52,71,18.45,MN,broken clouds,0.0,0.0,2020-03-04 22:01:22
Souillac,-20.52,57.52,79.0,100,40,5.57,MU,scattered clouds,0.0,0.0,2020-03-04 22:01:22
Tiksi,71.69,128.87,1.62,82,100,17.69,RU,overcast clouds,0.0,0.0,2020-03-04 22:01:22
Carnarvon,-24.87,113.63,77.0,100,40,10.29,AU,scattered clouds,0.0,0.0,2020-03-04 22:01:22
Sao Filipe,14.9,-24.5,73.71,66,0,12.91,CV,clear sky,0.0,0.0,2020-03-04 22:01:22
Olovyannaya,50.95,115.57,-4.7,98,4,1.72,RU,clear sky,0.0,0.0,2020-03-04 22:01:23
Nishihara,26.18,127.76,59.0,93,75,26.4,JP,light intensity shower rain,0.0,0.0,2020-03-04 22:01:23
Campeche,19.0,-90.5,102.22,25,0,6.67,MX,clear sky,0.0,0.0,2020-03-04 22:01:23
Lasa,46.62,10.7,39.2,85,90,4.7,IT,overcast clouds,0.0,0.0,2020-03-04 22:01:23
Marsabit,2.33,37.99,81.34,53,100,13.91,KE,overcast clouds,0.0,0.0,2020-03-04 22:01:24
Egvekinot,66.32,-179.17,-7.37,85,3,3.85,RU,clear sky,0.0,0.0,2020-03-04 22:01:24
Bilokurakyne,49.53,38.73,47.97,82,98,6.6,UA,overcast clouds,0.0,0.0,2020-03-04 22:01:24
Taveta,-3.4,37.67,68.0,94,75,5.01,KE,broken clouds,0.0,0.0,2020-03-04 22:01:24
Dagana,16.52,-15.51,89.6,15,0,2.24,MR,clear sky,0.0,0.0,2020-03-04 22:01:24
San Joaquin,10.26,-67.79,77.4,82,25,16.49,VE,scattered clouds,0.0,0.0,2020-03-04 22:01:25
Akyab,20.15,92.9,70.07,82,0,7.05,MM,clear sky,0.0,0.0,2020-03-04 22:01:25
Saint George,37.1,-113.58,66.0,17,0,6.93,US,clear sky,0.0,0.0,2020-03-04 22:01:25
Kota Kinabalu,5.97,116.07,80.01,88,20,1.66,MY,few clouds,0.0,0.0,2020-03-04 22:01:25
Muisne,0.6,-80.03,86.0,79,40,8.05,EC,scattered clouds,0.0,0.0,2020-03-04 22:01:25
Kudat,6.88,116.85,80.6,83,75,8.05,MY,broken clouds,0.0,0.0,2020-03-04 22:01:26
Saint-Augustin,51.23,-58.65,29.26,95,100,37.63,CA,snow,0.0,5.0,2020-03-04 22:01:26
Bengkulu,-3.8,102.27,72.88,83,100,3.02,ID,light rain,0.25,0.0,2020-03-04 22:01:25
Severo-Kurilsk,50.68,156.12,21.22,94,100,5.55,RU,light snow,0.0,0.25,2020-03-04 22:01:26
Kidal,18.44,1.41,78.66,7,0,11.97,ML,clear sky,0.0,0.0,2020-03-04 22:01:27
Batemans Bay,-35.72,150.18,70.0,96,100,11.01,AU,overcast clouds,0.0,0.0,2020-03-04 22:01:27
Ust-Tsilma,65.44,52.15,12.96,94,85,6.82,RU,overcast clouds,0.0,0.0,2020-03-04 22:01:27
Zhumadian,32.98,114.03,36.12,69,0,4.32,CN,clear sky,0.0,0.0,2020-03-04 22:01:27
Wenling,28.37,121.36,46.0,79,100,12.77,CN,overcast clouds,0.0,0.0,2020-03-04 22:01:27
Buin,-33.73,-70.75,89.6,27,0,5.82,CL,clear sky,0.0,0.0,2020-03-04 22:01:28
Merauke,-8.47,140.33,77.86,95,100,4.07,ID,moderate rain,8.13,0.0,2020-03-04 22:01:28
Umm Lajj,25.02,37.27,73.74,19,0,3.31,SA,clear sky,0.0,0.0,2020-03-04 22:01:28
Kupang,-10.17,123.58,73.4,100,20,0.4,ID,few clouds,0.0,0.0,2020-03-04 22:01:28
Georgetown,5.41,100.34,82.4,78,20,3.36,MY,few clouds,0.0,0.0,2020-03-04 21:52:05
Nanakuli,21.39,-158.15,82.4,65,40,3.36,US,scattered clouds,0.0,0.0,2020-03-04 22:01:29
Villa Carlos Paz,-31.42,-64.5,88.0,61,20,9.17,AR,few clouds,0.0,0.0,2020-03-04 21:59:37
Banjar,-8.19,114.97,83.23,72,100,6.33,ID,overcast clouds,0.0,0.0,2020-03-04 22:01:29
Ankang,32.68,109.02,41.38,83,0,2.33,CN,clear sky,0.0,0.0,2020-03-04 22:01:30
Bilma,18.69,12.92,73.99,8,0,6.44,NE,clear sky,0.0,0.0,2020-03-04 22:01:30
Tsiroanomandidy,-18.77,46.03,71.02,92,100,2.64,MG,light rain,1.13,0.0,2020-03-04 22:01:30
Kurilsk,45.23,147.88,28.02,92,98,7.99,RU,overcast clouds,0.0,0.0,2020-03-04 22:01:30
Victor Harbor,-35.57,138.62,63.0,72,75,11.41,AU,broken clouds,0.0,0.0,2020-03-04 22:01:31
Plettenberg Bay,-34.05,23.37,71.26,72,96,2.37,ZA,overcast clouds,0.0,0.0,2020-03-04 22:01:31
Qaanaaq,77.48,-69.36,-16.69,99,100,2.35,GL,overcast clouds,0.0,0.0,2020-03-04 22:01:31
Inuvik,68.35,-133.72,-14.8,68,75,11.95,CA,broken clouds,0.0,0.0,2020-03-04 22:01:31
Petropavlovsk-Kamchatskiy,53.05,158.65,8.6,71,100,11.18,RU,overcast clouds,0.0,0.0,2020-03-04 22:01:32
Sao Miguel Do Araguaia,-13.28,-50.16,79.74,92,89,1.68,BR,moderate rain,6.69,0.0,2020-03-04 22:01:32
Hamilton,39.18,-84.53,59.0,54,1,5.82,US,clear sky,0.0,0.0,2020-03-04 22:01:29
Marondera,-18.19,31.55,57.56,92,99,5.59,ZW,overcast clouds,0.0,0.0,2020-03-04 22:01:32
Roald,62.58,6.13,39.2,60,75,6.93,NO,broken clouds,0.0,0.0,2020-03-04 22:01:32
Abu Dhabi,24.47,54.37,70.0,63,40,8.05,AE,scattered clouds,0.0,0.0,2020-03-04 22:00:52
Ferrol,43.48,-8.24,63.0,82,40,14.99,ES,scattered clouds,0.0,0.0,2020-03-04 21:58:03
Yumen,40.28,97.2,28.54,53,32,1.14,CN,scattered clouds,0.0,0.0,2020-03-04 22:01:33
Fukue,32.69,128.84,41.0,65,75,19.46,JP,broken clouds,0.0,0.0,2020-03-04 22:01:34
Golkoy,40.69,37.62,48.2,76,100,1.12,TR,overcast clouds,0.0,0.0,2020-03-04 22:01:34
Mooresville,35.58,-80.81,59.0,44,1,4.7,US,clear sky,0.0,0.0,2020-03-04 21:56:57
Caramay,10.18,119.24,72.21,85,1,5.75,PH,clear sky,0.0,0.0,2020-03-04 22:01:34
Antofagasta,-23.65,-70.4,68.0,72,40,17.22,CL,scattered clouds,0.0,0.0,2020-03-04 22:01:34
Port Lincoln,-34.73,135.87,60.53,77,100,12.53,AU,overcast clouds,0.0,0.0,2020-03-04 22:01:35
Nouadhibou,20.93,-17.03,71.6,73,0,9.17,MR,clear sky,0.0,0.0,2020-03-04 22:01:35
Melton,-37.68,144.58,64.99,100,90,9.17,AU,light rain,0.0,0.0,2020-03-04 22:01:35
Suileng,47.25,127.08,2.17,95,0,3.33,CN,clear sky,0.0,0.0,2020-03-04 22:01:35
Calbuco,-41.77,-73.13,71.6,56,0,11.41,CL,clear sky,0.0,0.0,2020-03-04 22:01:35
Cidreira,-30.18,-50.21,72.86,72,34,14.99,BR,light rain,0.25,0.0,2020-03-04 21:58:32
Sainte-Suzanne,-20.91,55.61,78.8,88,40,4.7,RE,scattered clouds,0.0,0.0,2020-03-04 22:01:36
Half Moon Bay,37.46,-122.43,80.01,46,75,3.27,US,broken clouds,0.0,0.0,2020-03-04 22:01:36
Tomatlan,19.93,-105.25,88.75,31,86,9.48,MX,overcast clouds,0.0,0.0,2020-03-04 22:01:36
Bundaberg,-24.85,152.35,82.99,78,90,5.82,AU,overcast clouds,0.0,0.0,2020-03-04 22:01:37
Beringovskiy,63.05,179.32,3.02,71,0,2.64,RU,clear sky,0.0,0.0,2020-03-04 22:01:37
Otjiwarongo,-20.46,16.65,69.8,68,99,3.36,NA,light rain,1.13,0.0,2020-03-04 22:01:37
Awbari,26.59,12.78,64.4,27,0,10.33,LY,clear sky,0.0,0.0,2020-03-04 22:01:37
Sonoita,31.85,-112.83,71.01,35,0,6.15,MX,clear sky,0.0,0.0,2020-03-04 22:01:38
Magistralnyy,56.17,107.45,9.9,93,100,1.63,RU,overcast clouds,0.0,0.0,2020-03-04 22:01:38
Domoni,-12.26,44.53,84.27,72,68,10.29,KM,light rain,0.13,0.0,2020-03-04 22:01:38
Ilulissat,69.22,-51.1,-9.4,57,20,8.05,GL,few clouds,0.0,0.0,2020-03-04 22:01:38
Norman Wells,65.28,-126.83,-14.8,68,75,12.75,CA,broken clouds,0.0,0.0,2020-03-04 22:01:39
Providencia,28.72,-111.58,75.2,33,5,4.7,MX,clear sky,0.0,0.0,2020-03-04 22:01:39
Cremona,45.23,9.93,48.99,75,0,3.36,IT,clear sky,0.0,0.0,2020-03-04 22:01:39
Ostrovnoy,68.05,39.51,10.49,76,44,9.55,RU,scattered clouds,0.0,0.0,2020-03-04 22:01:39
San Quintin,30.48,-115.95,63.39,69,12,9.42,MX,few clouds,0.0,0.0,2020-03-04 22:01:39
Neiafu,-18.65,-173.98,82.4,83,40,8.05,TO,scattered clouds,0.0,0.0,2020-03-04 22:01:40
Abha,18.22,42.51,62.6,44,0,12.75,SA,clear sky,0.0,0.0,2020-03-04 22:01:40
Garden City,42.33,-83.33,48.2,39,40,9.17,US,scattered clouds,0.0,0.0,2020-03-04 22:00:01
Whitianga,-36.83,175.7,62.33,74,100,6.08,NZ,overcast clouds,0.0,0.0,2020-03-04 22:01:41
Yarke Pole,45.61,34.32,55.13,47,100,8.61,UA,overcast clouds,0.0,0.0,2020-03-04 22:01:41
Mossendjo,-2.95,12.73,73.89,99,93,2.06,CG,moderate rain,3.19,0.0,2020-03-04 22:01:41
Guderup,54.99,9.87,39.99,93,75,4.7,DK,broken clouds,0.0,0.0,2020-03-04 22:01:41
Palimbang,6.21,124.19,82.63,73,100,11.03,PH,overcast clouds,0.0,0.0,2020-03-04 22:01:42
Port Hedland,-20.32,118.57,77.0,94,0,4.7,AU,clear sky,0.0,0.0,2020-03-04 22:01:42
Longyearbyen,78.22,15.64,17.6,78,75,5.82,SJ,broken clouds,0.0,0.0,2020-03-04 22:01:42
Sjenica,43.27,20.0,29.95,98,100,2.8,RS,light snow,0.0,0.25,2020-03-04 22:01:42
Alihe,50.57,123.72,0.77,91,93,2.26,CN,overcast clouds,0.0,0.0,2020-03-04 22:01:43
Palmer,42.16,-72.33,53.6,27,20,18.34,US,few clouds,0.0,0.0,2020-03-04 22:01:43
Naze,28.37,129.48,59.0,76,75,12.75,JP,light rain,0.0,0.0,2020-03-04 22:01:43
Mankera,31.39,71.44,61.99,76,100,9.33,PK,overcast clouds,0.0,0.0,2020-03-04 22:01:43
Tateyama,34.98,139.87,46.99,93,40,3.36,JP,scattered clouds,0.0,0.0,2020-03-04 22:01:43
Mahina,-17.51,-149.49,87.8,66,75,5.82,PF,broken clouds,0.0,0.0,2020-03-04 22:01:44
Dodoma,-6.17,35.74,66.2,100,75,1.86,TZ,broken clouds,0.0,0.0,2020-03-04 22:01:44
Matara,5.95,80.54,74.61,93,62,2.3,LK,broken clouds,0.0,0.0,2020-03-04 22:01:44
Klaksvik,62.23,-6.59,37.4,74,0,9.17,FO,light rain,0.0,0.0,2020-03-04 22:01:45
Batsfjord,70.63,29.72,24.8,78,78,28.86,NO,broken clouds,0.0,0.0,2020-03-04 22:01:45
Isla Del Bosque,22.73,-105.85,77.0,47,75,10.29,MX,broken clouds,0.0,0.0,2020-03-04 22:01:45
Luanda,-8.84,13.23,80.6,74,0,8.05,AO,clear sky,0.0,0.0,2020-03-04 22:00:04
Dingle,11.0,122.67,73.4,83,75,8.84,PH,broken clouds,0.0,0.0,2020-03-04 22:01:46
Saint-Philippe,-21.36,55.77,78.8,100,90,4.7,RE,light rain,0.0,0.0,2020-03-04 22:01:46
Esna,25.29,32.55,64.69,13,0,2.28,EG,clear sky,0.0,0.0,2020-03-04 22:01:46
Nabire,-3.37,135.48,73.0,99,100,2.13,ID,moderate rain,9.0,0.0,2020-03-04 22:01:46
Fayaoue,-20.65,166.53,80.24,81,13,13.65,NC,light rain,0.69,0.0,2020-03-04 22:01:46
Imeni Babushkina,59.76,43.13,18.75,93,68,7.47,RU,broken clouds,0.0,0.0,2020-03-04 22:01:47
Macapa,0.04,-51.07,84.2,89,75,6.93,BR,broken clouds,0.0,0.0,2020-03-04 22:01:47
Mount Isa,-20.73,139.5,73.4,100,90,6.93,AU,light intensity shower rain,0.0,0.0,2020-03-04 22:00:51
Ciudad Bolivar,8.12,-63.55,96.69,24,77,13.0,VE,broken clouds,0.0,0.0,2020-03-04 22:01:47
Santiago De Chuco,-8.15,-78.18,56.07,71,99,1.68,PE,light rain,1.5,0.0,2020-03-04 22:01:48
Sioux Lookout,50.1,-91.92,26.6,58,75,3.36,CA,broken clouds,0.0,0.0,2020-03-04 22:00:58
Ojinaga,29.57,-104.42,59.0,47,90,20.8,MX,overcast clouds,0.0,0.0,2020-03-04 22:01:48
Mahebourg,-20.41,57.7,79.0,100,40,5.57,MU,scattered clouds,0.0,0.0,2020-03-04 22:01:48
Huilong,31.81,121.66,45.0,72,0,4.65,CN,clear sky,0.0,0.0,2020-03-04 22:01:49
Hithadhoo,-0.6,73.08,82.81,77,100,15.82,MV,overcast clouds,0.0,0.0,2020-03-04 22:01:49
Marabba,12.35,32.18,78.85,5,0,9.75,SD,clear sky,0.0,0.0,2020-03-04 22:01:49
Korla,41.76,86.15,42.01,51,49,5.01,CN,scattered clouds,0.0,0.0,2020-03-04 22:01:49
Gushikawa,26.35,127.87,59.0,93,75,26.4,JP,light intensity shower rain,0.0,0.0,2020-03-04 22:01:49
Voineasa,44.28,24.13,46.0,93,75,10.29,RO,broken clouds,0.0,0.0,2020-03-04 22:01:50
San Jose,37.34,-121.89,80.01,31,1,1.61,US,clear sky,0.0,0.0,2020-03-04 22:01:47
Piacabucu,-10.41,-36.43,82.8,77,0,9.89,BR,clear sky,0.0,0.0,2020-03-04 22:01:51
Agirish,61.92,63.02,13.01,79,0,16.26,RU,clear sky,0.0,0.0,2020-03-04 22:01:51
Wattegama,6.8,81.48,77.0,100,75,2.24,LK,broken clouds,0.0,0.0,2020-03-04 22:01:52
Shatrovo,56.52,64.63,22.01,91,65,9.37,RU,broken clouds,0.0,0.0,2020-03-04 22:01:52
Tiarei,-17.53,-149.33,87.8,66,75,5.82,PF,broken clouds,0.0,0.0,2020-03-04 22:01:52
Kihei,20.79,-156.47,82.4,65,20,6.93,US,few clouds,0.0,0.0,2020-03-04 21:58:35
Lazarev,52.23,141.51,6.46,98,100,1.74,RU,overcast clouds,0.0,0.0,2020-03-04 22:01:52
Gizo,-8.1,156.84,80.85,78,100,4.25,SB,overcast clouds,0.0,0.0,2020-03-04 22:01:53
Inta,66.03,60.17,8.92,91,97,11.48,RU,overcast clouds,0.0,0.0,2020-03-04 22:01:53
Miguel Calmon,-11.43,-40.59,78.84,61,40,1.97,BR,scattered clouds,0.0,0.0,2020-03-04 22:01:53
Meulaboh,4.14,96.13,82.45,79,100,7.29,ID,light rain,0.5,0.0,2020-03-04 22:01:53
Plymouth,41.83,-70.83,53.01,29,1,11.41,US,clear sky,0.0,0.0,2020-03-04 22:01:54
Praia Da Vitoria,38.73,-27.07,59.0,67,20,17.83,PT,few clouds,0.0,0.0,2020-03-04 22:01:54
Umtata,-31.59,28.78,69.8,88,0,2.24,ZA,clear sky,0.0,0.0,2020-03-04 22:01:54
Inverness,57.48,-4.22,37.4,86,20,5.82,GB,few clouds,0.0,0.0,2020-03-04 22:01:54
Zalantun,48.0,122.72,-0.11,82,24,1.97,CN,few clouds,0.0,0.0,2020-03-04 22:01:55
Freeport,40.66,-73.58,57.2,28,1,13.87,US,clear sky,0.0,0.0,2020-03-04 21:59:55
Buchanan,5.88,-10.05,80.37,86,9,3.96,LR,clear sky,0.0,0.0,2020-03-04 22:01:55
Xam Nua,20.42,104.04,57.63,98,100,2.91,LA,light rain,0.38,0.0,2020-03-04 22:01:55
Kysyl-Syr,63.9,122.76,2.95,95,100,8.01,RU,light snow,0.0,0.25,2020-03-04 22:01:56
Pimenta Bueno,-11.67,-61.19,81.82,91,23,3.15,BR,light rain,2.5,0.0,2020-03-04 22:01:56
Haines Junction,60.75,-137.51,-3.96,97,99,7.23,CA,light snow,0.0,0.31,2020-03-04 22:01:56
Banda Aceh,5.56,95.32,73.31,92,40,3.51,ID,scattered clouds,0.0,0.0,2020-03-04 21:54:41
Sacramento,38.47,-121.32,78.01,31,1,0.63,US,clear sky,0.0,0.0,2020-03-04 22:00:05
Fortuna,40.6,-124.16,69.01,81,20,10.29,US,few clouds,0.0,0.0,2020-03-04 22:01:57
Verkhnyaya Inta,65.98,60.31,7.65,94,90,12.82,RU,overcast clouds,0.0,0.0,2020-03-04 22:01:57
Hovd,48.01,91.64,19.38,92,100,4.12,MN,light snow,0.0,1.44,2020-03-04 22:01:57
Hammerfest,70.66,23.68,28.4,67,0,26.4,NO,clear sky,0.0,0.0,2020-03-04 22:01:57
Dudinka,69.41,86.18,10.4,85,40,11.18,RU,light snow,0.0,0.0,2020-03-04 22:01:58
Osmena,10.52,119.93,79.39,82,69,19.1,PH,broken clouds,0.0,0.0,2020-03-04 22:01:58
Stara Synyava,49.6,27.62,48.52,83,100,6.26,UA,overcast clouds,0.0,0.0,2020-03-04 22:01:58
Upernavik,72.79,-56.15,-13.11,72,95,5.7,GL,overcast clouds,0.0,0.0,2020-03-04 22:01:58
Vostok,46.49,135.88,10.78,91,100,3.09,RU,overcast clouds,0.0,0.0,2020-03-04 22:01:59
Zuwarah,32.93,12.08,60.66,59,38,19.37,LY,scattered clouds,0.0,0.0,2020-03-04 22:01:59
Las Palmas,28.42,-14.01,66.2,88,75,11.41,ES,broken clouds,0.0,0.0,2020-03-04 22:01:59
Simao,22.79,100.97,53.15,56,1,2.51,CN,clear sky,0.0,0.0,2020-03-04 22:01:59
Soe,-9.86,124.28,73.76,82,99,4.47,ID,overcast clouds,0.0,0.0,2020-03-04 22:01:59
Mahibadhoo,3.78,72.97,82.4,71,76,7.11,MV,broken clouds,0.0,0.0,2020-03-04 22:02:00
Aksum,14.12,38.72,61.79,33,0,1.21,ET,clear sky,0.0,0.0,2020-03-04 22:02:00
Itapirapua,-15.82,-50.61,77.5,92,58,3.13,BR,light rain,1.19,0.0,2020-03-04 22:02:00
San Ramon De La Nueva Oran,-23.13,-64.33,91.99,49,0,6.02,AR,clear sky,0.0,0.0,2020-03-04 22:02:00
Northam,51.03,-4.22,46.0,100,75,1.12,GB,light intensity drizzle,0.0,0.0,2020-03-04 22:02:01
Drumnadrochit,57.33,-4.48,37.4,86,20,5.82,GB,few clouds,0.0,0.0,2020-03-04 22:02:01
Kholtoson,50.3,103.31,7.27,90,100,4.41,RU,overcast clouds,0.0,0.0,2020-03-04 22:02:01
Balikpapan,-1.27,116.83,78.8,94,40,4.7,ID,scattered clouds,0.0,0.0,2020-03-04 22:02:01
Ajdabiya,30.76,20.23,61.18,59,44,9.01,LY,scattered clouds,0.0,0.0,2020-03-04 22:02:01
Tautira,-17.73,-149.15,87.8,66,75,5.82,PF,broken clouds,0.0,0.0,2020-03-04 22:02:02
Comodoro Rivadavia,-45.87,-67.5,87.8,31,0,10.29,AR,clear sky,0.0,0.0,2020-03-04 22:00:31
Maun,-19.98,23.42,69.8,83,36,4.7,BW,scattered clouds,0.0,0.0,2020-03-04 22:02:02
Atambua,-9.11,124.89,74.43,88,100,4.36,ID,overcast clouds,0.0,0.0,2020-03-04 22:02:02
Palana,59.12,159.97,5.79,77,0,4.88,RU,clear sky,0.0,0.0,2020-03-04 22:02:03
Mecca,21.43,39.83,75.83,60,16,3.18,SA,few clouds,0.0,0.0,2020-03-04 22:00:02
Sobolevo,54.43,31.9,42.03,88,100,14.65,RU,overcast clouds,0.0,0.0,2020-03-04 22:02:03
Ola,59.58,151.28,3.85,98,96,1.5,RU,overcast clouds,0.0,0.0,2020-03-04 22:02:03
Waverley,-25.7,28.26,66.99,67,0,2.24,ZA,clear sky,0.0,0.0,2020-03-04 22:02:03
Leshukonskoye,64.9,45.76,9.55,95,0,2.37,RU,clear sky,0.0,0.0,2020-03-04 22:02:04
Baykit,61.67,96.37,17.92,94,100,7.2,RU,light snow,0.0,0.38,2020-03-04 22:02:04
Chake Chake,-5.25,39.77,81.34,79,87,18.92,TZ,overcast clouds,0.0,0.0,2020-03-04 22:02:04
Natal,-5.79,-35.21,84.2,74,40,8.05,BR,scattered clouds,0.0,0.0,2020-03-04 22:02:04
Sitka,57.05,-135.33,35.6,74,75,13.87,US,broken clouds,0.0,0.0,2020-03-04 22:02:05
Kununurra,-15.77,128.73,75.2,94,40,4.7,AU,scattered clouds,0.0,0.0,2020-03-04 22:02:05
Boyuibe,-20.42,-63.28,91.4,27,20,4.7,BO,few clouds,0.0,0.0,2020-03-04 22:02:05
Ginir,7.13,40.7,63.72,64,99,3.85,ET,overcast clouds,0.0,0.0,2020-03-04 22:02:05
Oron,4.83,8.23,82.58,70,40,6.26,NG,scattered clouds,0.0,0.0,2020-03-04 22:02:05
Jumla,29.27,82.18,29.95,79,71,3.62,NP,broken clouds,0.0,0.0,2020-03-04 22:02:06
Mnogovershinnyy,53.94,139.92,7.72,84,96,1.59,RU,overcast clouds,0.0,0.0,2020-03-04 22:02:06
Strezhevoy,60.73,77.59,12.2,66,0,8.95,RU,clear sky,0.0,0.0,2020-03-04 22:02:06
Avera,33.19,-82.53,59.0,100,90,6.22,US,moderate rain,0.0,0.0,2020-03-04 22:02:06
Port Hardy,50.7,-127.42,44.6,70,90,9.17,CA,overcast clouds,0.0,0.0,2020-03-04 22:01:25
Beloha,-25.17,45.05,71.04,78,35,17.6,MG,scattered clouds,0.0,0.0,2020-03-04 22:02:07
Kahului,20.89,-156.47,82.4,65,20,6.93,US,few clouds,0.0,0.0,2020-03-04 22:01:19
General Roca,-39.03,-67.58,98.6,20,43,8.05,AR,scattered clouds,0.0,0.0,2020-03-04 22:02:07
Coos Bay,43.37,-124.22,60.01,76,1,12.75,US,clear sky,0.0,0.0,2020-03-04 22:01:20
Manjeri,11.12,76.12,80.6,69,20,4.7,IN,haze,0.0,0.0,2020-03-04 22:02:08
Sergeyevka,53.88,67.42,20.17,90,100,9.17,KZ,overcast clouds,0.0,0.0,2020-03-04 22:02:08
Prescott,34.54,-112.47,69.01,17,1,4.7,US,clear sky,0.0,0.0,2020-03-04 22:02:08
Komsomolskiy,40.43,71.72,48.2,70,40,4.7,UZ,scattered clouds,0.0,0.0,2020-03-04 22:02:08
Buta,2.79,24.73,74.88,68,0,2.8,CD,clear sky,0.0,0.0,2020-03-04 22:02:09
Weligama,5.97,80.42,74.61,93,62,2.3,LK,broken clouds,0.0,0.0,2020-03-04 22:02:09
Barabinsk,55.36,78.36,30.54,95,100,15.61,RU,light snow,0.0,0.44,2020-03-04 22:02:09
Sao Jose Da Coroa Grande,-8.9,-35.15,84.24,75,0,13.44,BR,clear sky,0.0,0.0,2020-03-04 22:02:09
Hervey Bay,-25.3,152.85,82.99,78,90,5.82,AU,overcast clouds,0.0,0.0,2020-03-04 22:02:10
Svetlyy,54.67,20.13,35.6,78,100,4.47,RU,overcast clouds,0.0,0.0,2020-03-04 22:02:10
Aksarka,66.56,67.8,1.42,83,91,12.59,RU,light snow,0.0,0.19,2020-03-04 22:02:10
Bagdarin,54.43,113.6,-2.6,90,0,2.3,RU,clear sky,0.0,0.0,2020-03-04 22:02:10
Svetlogorsk,52.63,29.73,46.17,92,100,10.04,BY,overcast clouds,0.0,0.0,2020-03-04 22:02:10
Hoquiam,46.98,-123.89,55.0,61,1,4.7,US,clear sky,0.0,0.0,2020-03-04 22:02:11
Mayo,38.89,-76.51,64.99,31,1,10.29,US,clear sky,0.0,0.0,2020-03-04 21:58:40
Nizwa,22.93,57.53,60.26,41,0,2.42,OM,clear sky,0.0,0.0,2020-03-04 22:02:11
La Rioja,42.25,-2.5,53.6,76,72,4.7,ES,broken clouds,0.0,0.0,2020-03-04 21:57:39
Mackay,-21.15,149.2,80.01,94,75,10.29,AU,broken clouds,0.0,0.0,2020-03-04 22:02:12
Kloulklubed,7.04,134.26,78.8,94,90,10.29,PW,light intensity shower rain,0.0,0.0,2020-03-04 22:02:12
Ylojarvi,61.56,23.6,34.0,100,90,11.41,FI,light intensity shower rain,0.0,0.0,2020-03-04 22:02:12
Hit,33.64,42.83,60.44,45,0,5.26,IQ,clear sky,0.0,0.0,2020-03-04 22:02:12
Hurghada,27.26,33.81,72.61,65,0,1.39,EG,clear sky,0.0,0.0,2020-03-04 22:00:57
Ilinskoye-Khovanskoye,56.97,39.77,35.6,100,90,8.95,RU,overcast clouds,0.0,0.0,2020-03-04 22:02:13
Berlevag,70.86,29.09,19.4,67,48,8.05,NO,scattered clouds,0.0,0.0,2020-03-04 22:02:13
Dabakala,8.37,-4.43,80.71,55,76,5.26,CI,broken clouds,0.0,0.0,2020-03-04 22:02:13
Menomonie,44.88,-91.92,44.01,50,1,5.82,US,clear sky,0.0,0.0,2020-03-04 22:00:02
Karratha,-20.74,116.85,85.95,71,6,12.28,AU,clear sky,0.0,0.0,2020-03-04 22:00:13
Los Llanos De Aridane,28.66,-17.92,66.2,82,100,11.41,ES,overcast clouds,0.0,0.0,2020-03-04 22:02:14
Araouane,18.9,-3.53,80.4,6,0,9.91,ML,clear sky,0.0,0.0,2020-03-04 22:02:14
Kurchum,48.57,83.65,8.35,83,4,2.91,KZ,clear sky,0.0,0.0,2020-03-04 22:02:14
Estelle,29.85,-90.11,80.6,88,90,12.75,US,overcast clouds,0.0,0.0,2020-03-04 22:02:14
Batagay,67.63,134.63,-10.53,81,100,4.0,RU,overcast clouds,0.0,0.0,2020-03-04 22:02:15
Touho,-20.78,165.23,76.01,85,0,5.08,NC,clear sky,0.0,0.0,2020-03-04 22:02:15
Seymchan,62.88,152.43,-7.4,83,13,9.19,RU,few clouds,0.0,0.0,2020-03-04 22:02:15
Tabou,4.42,-7.35,80.35,89,100,3.15,CI,overcast clouds,0.0,0.0,2020-03-04 22:02:15
Chute-Aux-Outardes,49.12,-68.4,32.0,99,90,8.05,CA,light snow,0.0,0.0,2020-03-04 22:02:16
Sola,-13.88,167.55,86.0,79,75,12.26,VU,broken clouds,0.0,0.0,2020-03-04 22:02:16
Cervo,43.67,-7.41,62.01,86,98,8.99,ES,overcast clouds,0.0,0.0,2020-03-04 22:02:16
Merrill,45.18,-89.68,37.4,37,1,5.82,US,clear sky,0.0,0.0,2020-03-04 22:02:17
Quezaltepeque,13.84,-89.27,93.2,51,20,9.17,SV,few clouds,0.0,0.0,2020-03-04 22:02:17
Talcahuano,-36.72,-73.12,73.4,56,0,19.46,CL,clear sky,0.0,0.0,2020-03-04 22:01:53
Gat,31.61,34.76,59.0,82,0,3.36,IL,clear sky,0.0,0.0,2020-03-04 21:58:01
Senj,44.99,14.91,48.2,49,71,5.82,HR,broken clouds,0.0,0.0,2020-03-04 22:02:18
Whitehorse,60.72,-135.05,12.99,60,75,6.93,CA,broken clouds,0.0,0.0,2020-03-04 22:02:00
Rio Verde De Mato Grosso,-18.92,-54.84,81.07,73,13,5.41,BR,light rain,0.44,0.0,2020-03-04 22:02:18
Puerto Leguizamo,-0.19,-74.78,89.04,55,80,4.97,CO,broken clouds,0.0,0.0,2020-03-04 22:02:18
Sorong,-0.88,131.25,73.53,99,100,1.43,ID,light rain,0.25,0.0,2020-03-04 22:02:19
Alofi,-19.06,-169.92,82.4,78,75,5.82,NU,broken clouds,0.0,0.0,2020-03-04 21:59:45
Ilebo,-4.32,20.58,75.83,66,22,1.32,CD,few clouds,0.0,0.0,2020-03-04 22:02:20
Shamkhal,43.06,47.34,39.2,93,90,4.47,RU,fog,0.0,0.0,2020-03-04 22:02:20
Yarmouth,41.71,-70.23,52.0,29,1,11.41,US,clear sky,0.0,0.0,2020-03-04 22:02:20
Tiznit,29.58,-9.5,71.22,38,0,2.66,MA,clear sky,0.0,0.0,2020-03-04 22:02:20
Kearney,40.7,-99.08,64.99,22,1,20.8,US,clear sky,0.0,0.0,2020-03-04 22:02:21
Thunder Bay,48.4,-89.32,36.0,65,40,8.05,CA,very heavy rain,0.0,0.0,2020-03-04 22:01:46
Sayat,38.78,63.88,39.2,64,100,6.93,TM,overcast clouds,0.0,0.0,2020-03-04 22:02:21
Concepcion,-36.83,-73.05,73.4,56,0,19.46,CL,clear sky,0.0,0.0,2020-03-04 22:02:21
Westport,41.14,-73.36,57.2,26,1,17.22,US,clear sky,0.0,0.0,2020-03-04 22:02:22
Shirokiy,49.76,129.52,2.82,97,0,2.15,RU,clear sky,0.0,0.0,2020-03-04 22:02:22
Chicama,-7.84,-79.15,77.0,73,20,10.29,PE,few clouds,0.0,0.0,2020-03-04 22:02:22
Port Blair,11.67,92.75,79.61,77,100,9.55,IN,overcast clouds,0.0,0.0,2020-03-04 22:02:23
Saint-Georges,12.06,-61.75,82.4,69,20,20.8,GD,few clouds,0.0,0.0,2020-03-04 22:02:23
Teodoro Sampaio,-22.53,-52.17,78.49,71,12,6.22,BR,few clouds,0.0,0.0,2020-03-04 22:02:23
Tura,25.52,90.22,64.74,70,31,3.8,IN,light rain,0.31,0.0,2020-03-04 22:02:23
Kisanga,-7.44,37.7,70.39,97,100,3.76,TZ,light rain,1.19,0.0,2020-03-04 22:02:24
Songadh,21.17,73.57,63.27,90,0,5.08,IN,clear sky,0.0,0.0,2020-03-04 22:00:06
Impfondo,1.64,18.07,72.07,92,48,2.68,CG,light rain,1.38,0.0,2020-03-04 22:02:24
Bongouanou,6.65,-4.2,75.88,91,100,2.1,CI,moderate rain,4.38,0.0,2020-03-04 22:02:24
Niquelandia,-14.47,-48.46,75.07,94,100,2.55,BR,moderate rain,5.63,0.0,2020-03-04 22:00:21
Mareeba,-17.0,145.43,84.2,79,80,2.24,AU,broken clouds,0.0,0.0,2020-03-04 22:02:25
Muroto,33.28,134.15,39.2,73,75,16.11,JP,shower rain,0.0,0.0,2020-03-04 22:02:25
Zhangye,38.93,100.45,35.26,29,0,6.87,CN,clear sky,0.0,0.0,2020-03-04 22:02:25
Noumea,-22.28,166.46,79.0,74,75,4.7,NC,broken clouds,0.0,0.0,2020-03-04 22:01:58
Vardo,70.37,31.11,24.8,68,100,29.97,NO,overcast clouds,0.0,0.0,2020-03-04 22:02:26
Paamiut,61.99,-49.67,9.7,55,0,3.31,GL,clear sky,0.0,0.0,2020-03-04 22:02:26
Bonthe,7.53,-12.51,80.73,86,37,8.59,SL,scattered clouds,0.0,0.0,2020-03-04 22:02:26
Sept-Iles,50.2,-66.38,30.99,86,90,16.11,CA,light snow,0.0,0.0,2020-03-04 21:59:45
Kasempa,-13.46,25.83,63.99,96,100,7.61,ZM,light rain,1.31,0.0,2020-03-04 22:02:27
Supaul,26.12,86.6,70.9,41,57,7.61,IN,broken clouds,0.0,0.0,2020-03-04 22:02:27
Ketchikan,55.34,-131.65,35.6,100,90,23.04,US,moderate rain,0.0,0.0,2020-03-04 22:02:25
San Luis,-33.3,-66.34,99.43,15,0,8.05,AR,clear sky,0.0,0.0,2020-03-04 22:02:27
Muhos,64.81,25.99,23.0,92,90,16.11,FI,light snow,0.0,0.0,2020-03-04 22:02:27
Fengzhen,40.44,113.15,18.32,42,0,4.85,CN,clear sky,0.0,0.0,2020-03-04 22:02:28
Turayf,31.67,38.66,53.6,62,0,9.17,SA,clear sky,0.0,0.0,2020-03-04 22:02:28
San Buenaventura,27.08,-101.53,78.8,16,40,11.41,MX,scattered clouds,0.0,0.0,2020-03-04 22:02:28
Krasnoselkup,65.7,82.47,1.36,97,53,9.51,RU,broken clouds,0.0,0.0,2020-03-04 22:02:28
Lamar,33.67,-95.58,59.0,76,90,9.17,US,light rain,0.0,0.0,2020-03-04 21:58:30
Malumfashi,11.79,7.62,80.08,16,100,9.75,NG,overcast clouds,0.0,0.0,2020-03-04 22:02:29
Sao Joao Da Barra,-21.64,-41.05,73.4,94,90,9.17,BR,light rain,0.0,0.0,2020-03-04 22:02:29
Doha,25.29,51.53,64.4,55,0,9.17,QA,clear sky,0.0,0.0,2020-03-04 22:02:29
Makakilo City,21.35,-158.09,82.4,65,40,3.36,US,scattered clouds,0.0,0.0,2020-03-04 22:02:29
Tual,-5.67,132.75,83.84,79,100,11.32,ID,light rain,1.69,0.0,2020-03-04 22:02:29
Cairns,-16.92,145.77,84.2,79,58,2.24,AU,broken clouds,0.0,0.0,2020-03-04 22:00:25
Misratah,32.38,15.09,60.19,65,7,36.1,LY,clear sky,0.0,0.0,2020-03-04 22:02:30
Luganville,-15.53,167.17,84.2,74,40,6.93,VU,scattered clouds,0.0,0.0,2020-03-04 22:02:30
Komatipoort,-25.43,31.95,64.0,90,0,2.46,ZA,clear sky,0.0,0.0,2020-03-04 22:02:30
Kempsey,-31.08,152.83,75.99,88,91,10.0,AU,light rain,1.13,0.0,2020-03-04 22:02:31
Kulhudhuffushi,6.62,73.07,82.6,73,14,7.94,MV,few clouds,0.0,0.0,2020-03-04 22:02:31
Matamoros,25.53,-103.25,71.6,19,40,4.7,MX,scattered clouds,0.0,0.0,2020-03-04 22:02:31
Waiouru,-39.48,175.67,54.41,67,99,5.77,NZ,overcast clouds,0.0,0.0,2020-03-04 22:00:58
Bougouni,11.42,-7.48,81.52,12,0,2.8,ML,clear sky,0.0,0.0,2020-03-04 22:02:31
Zhuanghe,39.7,122.99,21.99,80,0,9.15,CN,clear sky,0.0,0.0,2020-03-04 22:02:32
Pyaozerskiy,65.83,31.17,13.77,92,100,11.07,RU,overcast clouds,0.0,0.0,2020-03-04 22:02:32
Banka,24.88,86.92,70.07,60,9,4.43,IN,light rain,0.5,0.0,2020-03-04 22:02:32
Capitan Bado,-23.27,-55.53,81.09,59,43,9.35,PY,scattered clouds,0.0,0.0,2020-03-04 22:02:32
San Nicolas,18.17,120.6,71.6,94,20,3.36,PH,few clouds,0.0,0.0,2020-03-04 22:02:32
Aliwal North,-30.69,26.71,67.46,42,0,1.9,ZA,clear sky,0.0,0.0,2020-03-04 22:02:33
Moerai,-22.43,-151.33,76.03,93,100,14.94,PF,moderate rain,4.06,0.0,2020-03-04 22:02:33
Ruidoso,33.33,-105.67,64.0,25,1,10.29,US,clear sky,0.0,0.0,2020-03-04 22:02:15
Pemangkat,1.17,108.97,74.75,92,100,5.77,ID,overcast clouds,0.0,0.0,2020-03-04 22:02:33
Kharagpur,22.33,87.33,67.19,74,3,3.44,IN,light rain,0.31,0.0,2020-03-04 22:02:34
Monrovia,6.3,-10.8,82.17,83,43,7.83,LR,scattered clouds,0.0,0.0,2020-03-04 21:58:34
Huarmey,-10.07,-78.15,82.51,51,89,9.35,PE,overcast clouds,0.0,0.0,2020-03-04 22:02:34
Locri,38.24,16.26,54.0,87,40,10.29,IT,moderate rain,0.0,0.0,2020-03-04 22:02:34
Namie,37.48,141.0,39.99,100,75,12.75,JP,broken clouds,0.0,0.0,2020-03-04 22:02:35
Tamandare,-8.76,-35.1,84.24,75,0,13.44,BR,clear sky,0.0,0.0,2020-03-04 22:02:35
Preobrazheniye,42.9,133.91,21.33,80,100,7.2,RU,overcast clouds,0.0,0.0,2020-03-04 22:02:35
Zhiryatino,53.22,33.73,42.21,93,95,13.22,RU,overcast clouds,0.0,0.0,2020-03-04 22:02:35
Masuguru,-11.37,38.42,70.92,96,100,2.28,TZ,overcast clouds,0.0,0.0,2020-03-04 22:02:35
Veraval,20.9,70.37,66.63,91,0,5.59,IN,clear sky,0.0,0.0,2020-03-04 22:02:36
Pangai,-19.8,-174.35,84.2,70,20,11.41,TO,few clouds,0.0,0.0,2020-03-04 22:02:36
Joacaba,-27.18,-51.5,71.83,60,66,3.83,BR,broken clouds,0.0,0.0,2020-03-04 22:02:37
Arthur,39.71,-88.47,53.6,45,1,8.05,US,clear sky,0.0,0.0,2020-03-04 22:02:37
Hargeysa,9.56,44.06,63.91,84,2,8.37,SO,clear sky,0.0,0.0,2020-03-04 22:02:37
Tromso,69.65,18.96,28.4,54,100,35.57,NO,overcast clouds,0.0,0.0,2020-03-04 22:02:37
Voh,-20.97,164.7,79.23,77,0,6.11,NC,clear sky,0.0,0.0,2020-03-04 22:02:37
Sorland,67.67,12.69,35.6,59,75,6.93,NO,light shower snow,0.0,0.0,2020-03-04 22:02:38
Amberley,39.2,-84.43,59.0,38,1,14.99,US,clear sky,0.0,0.0,2020-03-04 22:02:38
Pavino,59.11,46.14,17.56,93,0,7.47,RU,clear sky,0.0,0.0,2020-03-04 22:02:38
Conceicao Do Araguaia,-8.26,-49.26,77.0,94,0,5.82,BR,clear sky,0.0,0.0,2020-03-04 22:02:38
Lata,40.16,-8.33,60.01,93,75,6.93,PT,broken clouds,0.0,0.0,2020-03-04 22:02:39
Byron Bay,-28.65,153.62,81.0,94,75,3.36,AU,broken clouds,0.0,0.0,2020-03-04 22:02:39
Nortelandia,-14.45,-56.8,82.53,71,100,2.21,BR,overcast clouds,0.0,0.0,2020-03-04 22:02:39
Ixtapa,20.7,-105.2,78.8,65,90,12.75,MX,overcast clouds,0.0,0.0,2020-03-04 21:58:11
Lompoc,34.64,-120.46,69.8,82,20,5.82,US,haze,0.0,0.0,2020-03-04 22:02:40
Carahue,-38.7,-73.17,75.2,53,74,14.99,CL,broken clouds,0.0,0.0,2020-03-04 22:02:40
Baripada,21.93,86.72,66.0,67,15,5.61,IN,light rain,0.56,0.0,2020-03-04 22:02:40
Voskresenskoye,56.84,45.43,29.91,97,100,4.61,RU,overcast clouds,0.0,0.0,2020-03-04 22:02:41
Gavrilov-Yam,57.3,39.85,35.6,100,90,8.95,RU,overcast clouds,0.0,0.0,2020-03-04 22:02:41
Laguna,38.42,-121.42,79.0,35,1,0.63,US,clear sky,0.0,0.0,2020-03-04 22:02:41
Flinders,-34.58,150.86,72.0,100,90,10.29,AU,moderate rain,0.0,0.0,2020-03-04 22:02:41
Galle,6.04,80.22,81.86,74,100,2.1,LK,overcast clouds,0.0,0.0,2020-03-04 22:02:42
Oxford,51.75,-1.26,43.0,93,75,5.82,GB,broken clouds,0.0,0.0,2020-03-04 22:02:01
Penzance,50.12,-5.54,48.99,100,75,2.24,GB,broken clouds,0.0,0.0,2020-03-04 22:02:42
Antigonish,45.62,-62.0,39.99,80,90,32.21,CA,light rain,0.0,0.0,2020-03-04 22:02:43
Kirakira,-10.45,161.92,80.69,80,85,3.09,SB,overcast clouds,0.0,0.0,2020-03-04 22:02:43
Atar,20.52,-13.05,78.4,7,0,7.09,MR,clear sky,0.0,0.0,2020-03-04 21:58:18
Bud,39.45,-86.18,55.99,43,1,6.93,US,clear sky,0.0,0.0,2020-03-04 22:02:43
Mana,5.66,-53.78,79.36,70,45,7.67,GF,scattered clouds,0.0,0.0,2020-03-04 22:02:44
Laguna De Perlas,12.34,-83.67,84.2,74,40,4.7,NI,scattered clouds,0.0,0.0,2020-03-04 22:02:44
Gwadar,25.12,62.33,74.25,68,0,17.47,PK,clear sky,0.0,0.0,2020-03-04 22:02:44
Alamogordo,32.9,-105.96,64.0,41,1,6.93,US,clear sky,0.0,0.0,2020-03-04 22:02:45
Kayanza,-3.07,29.67,58.82,87,99,3.24,BI,overcast clouds,0.0,0.0,2020-03-04 22:02:45
Sao Felix Do Xingu,-6.64,-51.99,79.0,95,92,2.15,BR,moderate rain,4.56,0.0,2020-03-04 22:02:45
Koygorodok,60.45,51.0,6.4,95,0,2.62,RU,clear sky,0.0,0.0,2020-03-04 22:02:45
Macae,-22.37,-41.79,75.2,100,90,2.24,BR,overcast clouds,0.0,0.0,2020-03-04 22:02:46
Dongning,44.06,131.12,10.87,88,0,5.84,CN,clear sky,0.0,0.0,2020-03-04 22:02:46
Kyabram,-36.32,145.05,72.0,97,100,13.73,AU,moderate rain,9.88,0.0,2020-03-04 22:02:46
Chongwe,-15.33,28.68,61.9,97,100,6.35,ZM,overcast clouds,0.0,0.0,2020-03-04 22:02:46
Prince Rupert,54.32,-130.32,39.2,77,75,18.34,CA,broken clouds,0.0,0.0,2020-03-04 22:00:39
Ornskoldsvik,63.29,18.72,28.4,92,90,9.17,SE,snow,0.0,0.0,2020-03-04 22:02:47
Atasu,48.68,71.64,11.39,64,50,4.21,KZ,scattered clouds,0.0,0.0,2020-03-04 22:02:47
Baghdad,33.34,44.4,55.4,58,0,5.82,IQ,clear sky,0.0,0.0,2020-03-04 22:02:47
Santa Rosa,14.31,121.11,77.0,73,20,1.12,PH,few clouds,0.0,0.0,2020-03-04 22:01:51
Bull Savanna,17.89,-77.59,78.84,62,0,14.14,JM,clear sky,0.0,0.0,2020-03-04 22:02:47
Solenzo,12.18,-4.08,83.55,10,0,3.78,BF,clear sky,0.0,0.0,2020-03-04 22:02:48
Gladstone,-23.85,151.25,77.0,88,75,4.7,AU,broken clouds,0.0,0.0,2020-03-04 22:02:48
Ust-Koksa,50.27,85.61,3.54,90,42,7.27,RU,scattered clouds,0.0,0.0,2020-03-04 22:02:48
Tallahassee,30.44,-84.28,78.01,100,90,4.7,US,overcast clouds,0.0,0.0,2020-03-04 22:00:48
Kavieng,-2.57,150.8,84.04,65,100,5.37,PG,overcast clouds,0.0,0.0,2020-03-04 22:02:48
Shelburne,44.08,-80.2,37.4,64,75,11.41,CA,broken clouds,0.0,0.0,2020-03-04 22:00:32
Muriti,-1.98,32.92,66.2,88,75,12.66,TZ,broken clouds,0.0,0.0,2020-03-04 22:02:49
Ballybofey,54.8,-7.78,42.8,87,75,5.82,IE,broken clouds,0.0,0.0,2020-03-04 22:02:49
Altay,47.87,88.12,7.59,64,0,6.31,CN,clear sky,0.0,0.0,2020-03-04 22:02:49
Anadyr,64.75,177.48,0.0,70,0,4.47,RU,clear sky,0.0,0.0,2020-03-04 22:02:50
Eydhafushi,5.1,73.07,82.24,70,11,4.68,MV,few clouds,0.0,0.0,2020-03-04 22:02:50
Havelock,34.88,-76.9,60.8,55,90,5.82,US,overcast clouds,0.0,0.0,2020-03-04 22:02:50
Norilsk,69.35,88.2,10.4,85,40,11.18,RU,light snow,0.0,0.0,2020-03-04 21:59:59
Vysotsk,60.63,28.57,33.01,93,90,13.87,RU,light intensity drizzle,0.0,0.0,2020-03-04 22:02:51
Zhigansk,66.77,123.37,1.67,94,100,13.56,RU,light snow,0.0,0.25,2020-03-04 22:02:51
Sandi,27.3,79.95,65.39,63,8,10.13,IN,clear sky,0.0,0.0,2020-03-04 22:02:51
Elban,50.1,136.51,17.26,95,100,5.39,RU,light snow,0.0,0.25,2020-03-04 22:02:51
Beaverlodge,55.22,-119.44,33.8,50,40,27.51,CA,scattered clouds,0.0,0.0,2020-03-04 22:02:52
Belyy Yar,53.6,91.39,24.8,73,19,13.42,RU,few clouds,0.0,0.0,2020-03-04 22:02:52
San Cosme Y Damian,-27.32,-56.35,89.6,35,20,9.17,PY,few clouds,0.0,0.0,2020-03-04 22:02:52
Haizhou,34.58,119.13,31.86,66,0,3.04,CN,clear sky,0.0,0.0,2020-03-04 22:02:53
Padang,-0.95,100.35,68.36,96,100,1.86,ID,light rain,0.38,0.0,2020-03-04 22:02:53
Bandipur,27.93,84.42,56.08,53,0,2.75,NP,clear sky,0.0,0.0,2020-03-04 22:02:53
Qaqortoq,60.72,-46.03,8.6,46,0,3.36,GL,clear sky,0.0,0.0,2020-03-04 21:59:15
Borogontsy,62.67,131.17,-10.84,99,94,5.93,RU,overcast clouds,0.0,0.0,2020-03-04 22:02:53
Udachnyy,66.42,112.4,1.4,84,81,6.71,RU,broken clouds,0.0,0.0,2020-03-04 22:02:54
Coihaique,-45.58,-72.07,71.6,49,40,4.7,CL,scattered clouds,0.0,0.0,2020-03-04 22:02:54
Ewa Beach,21.32,-158.01,82.4,74,20,10.29,US,few clouds,0.0,0.0,2020-03-04 22:02:54
Aswan,24.09,32.91,65.17,15,0,0.69,EG,clear sky,0.0,0.0,2020-03-04 22:02:54
Liter,47.1,18.0,37.4,86,44,7.76,HU,scattered clouds,0.0,0.0,2020-03-04 22:02:54
Samarai,-10.62,150.67,78.66,87,91,2.77,PG,overcast clouds,0.0,0.0,2020-03-04 22:02:55
Ulladulla,-35.35,150.47,70.0,100,90,10.29,AU,moderate rain,0.0,0.0,2020-03-04 22:02:55
Pindiga,9.98,10.93,85.75,14,6,9.28,NG,clear sky,0.0,0.0,2020-03-04 22:02:55
Hatfield,51.76,-0.22,43.0,100,90,10.29,GB,overcast clouds,0.0,0.0,2020-03-04 22:02:40
Rawson,-43.3,-65.1,73.13,65,100,11.25,AR,light rain,0.38,0.0,2020-03-04 22:02:56
Huesca,42.14,-0.41,53.6,81,35,8.05,ES,scattered clouds,0.0,0.0,2020-03-04 22:01:16
Manta,-0.95,-80.73,84.2,79,40,6.93,EC,scattered clouds,0.0,0.0,2020-03-04 22:01:23
Charlottetown,46.24,-63.13,37.0,93,90,23.04,CA,moderate rain,0.0,0.0,2020-03-04 22:00:05
Aracati,-4.56,-37.77,79.52,79,67,4.65,BR,broken clouds,0.0,0.0,2020-03-04 22:02:56
Portland,45.52,-122.68,57.0,46,20,3.36,US,few clouds,0.0,0.0,2020-03-04 22:02:57
Mushie,-3.02,16.9,76.44,77,65,1.99,CD,broken clouds,0.0,0.0,2020-03-04 21:59:04
Sokoni,-6.43,39.55,77.0,88,75,18.23,TZ,broken clouds,0.0,0.0,2020-03-04 22:02:57
Nassau,40.75,-73.58,57.2,28,1,13.87,US,clear sky,0.0,0.0,2020-03-04 22:02:57
Batken,39.83,71.0,44.42,79,100,0.45,KG,overcast clouds,0.0,0.0,2020-03-04 22:02:58
Puntarenas,9.98,-84.84,84.2,51,40,12.75,CR,scattered clouds,0.0,0.0,2020-03-04 22:02:58
Cayenne,4.93,-52.33,82.4,69,75,11.41,GF,broken clouds,0.0,0.0,2020-03-04 22:00:05
Pingliang,35.54,106.69,31.48,82,0,5.7,CN,clear sky,0.0,0.0,2020-03-04 22:02:58
Harstad,68.8,16.53,33.8,54,100,20.8,NO,overcast clouds,0.0,0.0,2020-03-04 22:02:58
Faya,18.39,42.45,62.6,44,0,12.75,SA,clear sky,0.0,0.0,2020-03-04 21:56:49
Wakkanai,45.41,141.67,30.13,84,100,35.97,JP,overcast clouds,0.0,0.0,2020-03-04 22:02:59
Rio Gallegos,-51.62,-69.22,71.6,35,40,25.28,AR,scattered clouds,0.0,0.0,2020-03-04 22:02:59
Terney,45.05,136.61,20.01,91,100,7.76,RU,light snow,0.0,0.94,2020-03-04 22:03:00
Lubuk Pakam,3.56,98.88,77.0,100,40,3.36,ID,mist,0.0,0.0,2020-03-04 22:03:00
Guapore,-28.85,-51.89,79.0,53,100,4.34,BR,overcast clouds,0.0,0.0,2020-03-04 22:00:20
Sayyan,15.17,44.32,54.1,53,1,1.23,YE,clear sky,0.0,0.0,2020-03-04 22:03:00
Coquimbo,-29.95,-71.34,64.4,77,90,10.29,CL,overcast clouds,0.0,0.0,2020-03-04 22:02:52
Fairbanks,64.84,-147.72,-8.0,82,1,2.35,US,clear sky,0.0,0.0,2020-03-04 22:03:01
Tilichiki,60.47,166.1,-4.56,84,24,4.97,RU,few clouds,0.0,0.0,2020-03-04 22:03:01
Terrace Bay,48.78,-87.1,26.6,58,90,10.29,CA,overcast clouds,0.0,0.0,2020-03-04 22:03:02
Saurimo,-9.66,20.39,67.53,87,100,3.31,AO,overcast clouds,0.0,0.0,2020-03-04 22:03:02
Capreol,46.71,-80.92,34.0,89,75,9.17,CA,light rain,0.0,0.0,2020-03-04 22:03:02
Belmonte,-15.86,-38.88,82.4,74,40,12.75,BR,smoke,0.0,0.0,2020-03-04 22:03:02
Tigil,57.8,158.67,5.29,84,96,6.62,RU,overcast clouds,0.0,0.0,2020-03-04 22:03:03
Male,4.17,73.51,84.2,79,75,8.05,MV,broken clouds,0.0,0.0,2020-03-04 22:03:03
Ures,29.43,-110.4,75.0,37,0,5.01,MX,clear sky,0.0,0.0,2020-03-04 22:03:03
Kalmar,56.66,16.36,37.0,100,82,5.82,SE,broken clouds,0.0,0.0,2020-03-04 22:03:03
Ashqelon,31.67,34.57,59.0,82,0,3.36,IL,clear sky,0.0,0.0,2020-03-04 22:03:04
Koslan,63.46,48.9,8.24,95,0,3.98,RU,clear sky,0.0,0.0,2020-03-04 22:03:04
